city,cloudiness,country,date,humidity,lat,lon,main_temp,max_temp,pressure,timezone,visibility,wind.deg,wind_speed
Mar del Plata,90.0,AR,1603589851.0,100.0,-38.0,-57.56,15.3,16.11,1014.0,-10800.0,10000.0,70.0,2.6
Kitimat,0.0,CA,1603590123.0,53.0,54.05,-128.65,1.67,1.67,1035.0,-25200.0,10000.0,53.0,2.18
Māngrol,36.0,IN,1603590124.0,62.0,21.12,70.12,26.85,26.85,1011.0,19800.0,10000.0,20.0,2.41
Road Town,88.0,VG,1603590070.0,83.0,18.42,-64.62,28.15,28.33,1014.0,-14400.0,10000.0,67.0,7.15
Inzer,97.0,RU,1603590124.0,91.0,54.22,57.56,4.14,4.14,1010.0,18000.0,6039.0,212.0,1.74
Novoselitskoye,0.0,RU,1603590124.0,75.0,44.75,43.44,5.0,5.0,1017.0,10800.0,10000.0,300.0,3.0
Leningradskiy,0.0,RU,1603590124.0,92.0,69.38,178.42,-4.52,-4.52,1019.0,43200.0,10000.0,149.0,4.2
Ambon City,20.0,ID,1603589947.0,70.0,-3.7,128.18,31.0,31.0,1011.0,32400.0,10000.0,170.0,1.5
Bilma,0.0,NE,1603589903.0,21.0,18.69,12.92,22.13,22.13,1013.0,3600.0,10000.0,38.0,5.81
Chamba,0.0,IN,1603590125.0,35.0,32.57,76.13,15.37,15.37,1018.0,19800.0,10000.0,78.0,2.75
Maïné Soroa,93.0,NE,1603590125.0,19.0,13.21,12.02,26.82,26.82,1010.0,3600.0,10000.0,39.0,4.8
Busselton,62.0,AU,1603590125.0,32.0,-33.65,115.33,22.56,26.11,1008.0,28800.0,10000.0,38.0,3.85
Dunedin,100.0,NZ,1603589974.0,53.0,-45.87,170.5,20.51,20.51,1007.0,46800.0,10000.0,331.0,6.73
Torbay,90.0,CA,1603590126.0,100.0,47.67,-52.73,9.53,10.0,1011.0,-9000.0,10000.0,170.0,10.8
Sept-Îles,20.0,CA,1603590126.0,59.0,50.2,-66.38,3.0,3.0,1012.0,-14400.0,10000.0,310.0,4.1
Vaini,75.0,TO,1603590126.0,88.0,-21.2,-175.2,24.0,24.0,1014.0,46800.0,10000.0,110.0,5.1
Saint Paul Harbor,90.0,US,1603589988.0,93.0,57.79,-152.41,7.0,7.0,1019.0,-28800.0,10000.0,150.0,1.5
Butaritari,83.0,KI,1603590126.0,69.0,3.07,172.79,27.25,27.25,1008.0,43200.0,10000.0,147.0,3.36
Araouane,0.0,ML,1603590082.0,14.0,18.9,-3.53,29.84,29.84,1012.0,0.0,10000.0,87.0,4.23
Provideniya,91.0,RU,1603590127.0,87.0,64.38,-173.3,1.42,1.42,1015.0,43200.0,10000.0,26.0,4.93
Pacific Grove,1.0,US,1603590036.0,72.0,36.62,-121.92,16.0,17.0,1014.0,-25200.0,10000.0,310.0,3.1
Cabo San Lucas,5.0,MX,1603589832.0,58.0,22.89,-109.91,28.6,29.0,1013.0,-21600.0,10000.0,311.0,4.44
Östersund,100.0,SE,1603590127.0,99.0,63.18,14.64,0.28,0.56,1000.0,3600.0,10000.0,130.0,4.6
São João da Barra,100.0,BR,1603590127.0,93.0,-21.64,-41.05,22.4,22.4,1013.0,-10800.0,10000.0,45.0,7.56
Mataura,100.0,NZ,1603590127.0,46.0,-46.19,168.86,22.95,22.95,1007.0,46800.0,10000.0,300.0,6.31
Ushuaia,75.0,AR,1603590041.0,70.0,-54.8,-68.3,7.0,7.0,1009.0,-10800.0,10000.0,340.0,5.7
Albany,61.0,US,1603589834.0,68.0,42.6,-73.97,7.4,8.33,1016.0,-14400.0,10000.0,268.0,1.79
Caravelas,100.0,BR,1603590128.0,86.0,-17.71,-39.25,24.24,24.24,1013.0,-10800.0,10000.0,29.0,3.37
Mahébourg,75.0,MU,1603590128.0,94.0,-20.41,57.7,21.0,21.0,1018.0,14400.0,5000.0,100.0,7.2
Ostrovnoy,100.0,RU,1603590128.0,97.0,68.05,39.51,-0.3,-0.3,999.0,10800.0,652.0,88.0,5.64
Faanui,97.0,PF,1603589866.0,77.0,-16.48,-151.75,26.24,26.24,1009.0,-36000.0,7573.0,359.0,5.28
Havelock,1.0,US,1603590128.0,93.0,34.88,-76.9,19.72,22.78,1016.0,-14400.0,10000.0,168.0,2.26
Arraial do Cabo,100.0,BR,1603590129.0,93.0,-22.97,-42.03,21.22,21.22,1013.0,-10800.0,7161.0,86.0,9.7
Barreirinhas,61.0,BR,1603590129.0,79.0,-2.75,-42.83,26.71,26.71,1009.0,-10800.0,10000.0,60.0,4.11
Alofi,91.0,NU,1603590129.0,69.0,-19.06,-169.92,28.0,28.0,1011.0,-39600.0,10000.0,110.0,8.7
Airai,82.0,TL,1603589841.0,50.0,-8.93,125.41,26.57,26.57,1011.0,32400.0,10000.0,146.0,0.62
Paamiut,100.0,GL,1603590129.0,84.0,61.99,-49.67,-1.81,-1.81,1007.0,-10800.0,10000.0,96.0,3.22
Katsuura,40.0,JP,1603590130.0,42.0,35.13,140.3,17.59,19.44,1012.0,32400.0,10000.0,340.0,6.2
Pingshan,88.0,CN,1603590130.0,54.0,22.99,114.71,24.44,24.44,1014.0,28800.0,10000.0,45.0,0.45
Bengkulu,100.0,ID,1603589877.0,66.0,-3.8,102.27,28.59,28.59,1014.0,25200.0,10000.0,330.0,0.82
Karligan,100.0,PH,1603590130.0,87.0,14.97,122.05,26.98,26.98,1010.0,28800.0,4901.0,13.0,10.02
St. George's,40.0,GD,1603590130.0,78.0,12.06,-61.75,28.0,28.0,1012.0,-14400.0,10000.0,60.0,5.1
Mahesāna,40.0,IN,1603590130.0,60.0,23.6,72.4,24.0,24.0,1010.0,19800.0,2500.0,70.0,1.5
Alice Springs,0.0,AU,1603590006.0,30.0,-23.7,133.88,21.0,21.0,1019.0,34200.0,10000.0,80.0,5.7
Puerto Ayora,100.0,EC,1603590131.0,95.0,-0.74,-90.35,20.0,20.0,1013.0,-21600.0,10000.0,182.0,2.24
George Town,20.0,MY,1603590123.0,83.0,5.41,100.34,27.31,28.0,1012.0,28800.0,8000.0,175.0,3.2
Saint George,66.0,US,1603590131.0,31.0,37.1,-113.58,24.0,24.0,1010.0,-21600.0,10000.0,234.0,0.45
Ust'-Tarka,100.0,RU,1603590131.0,84.0,55.57,75.7,-1.42,-1.42,1020.0,25200.0,10000.0,166.0,7.69
Te Anau,100.0,NZ,1603590058.0,86.0,-45.42,167.72,15.46,15.46,1009.0,46800.0,10000.0,340.0,1.12
Sitka,90.0,US,1603589902.0,44.0,57.05,-135.33,5.0,5.0,1034.0,-28800.0,10000.0,50.0,1.5
Krasnobrodskiy,1.0,RU,1603590132.0,91.0,54.16,86.45,-4.65,-4.65,1035.0,25200.0,10000.0,221.0,4.65
Sirte,0.0,LY,1603590132.0,74.0,31.21,16.59,19.07,19.07,1019.0,7200.0,10000.0,199.0,2.9
Thompson,75.0,CA,1603590132.0,85.0,55.74,-97.86,-6.0,-6.0,1024.0,-18000.0,10000.0,260.0,2.6
Vagay,100.0,RU,1603590132.0,98.0,57.94,69.02,-0.73,-0.73,1007.0,18000.0,175.0,152.0,4.71
Bagdarin,100.0,RU,1603590132.0,88.0,54.43,113.6,-0.81,-0.81,1022.0,28800.0,10000.0,71.0,0.85
Rikitea,99.0,PF,1603589912.0,81.0,-23.12,-134.97,23.83,23.83,1013.0,-32400.0,10000.0,341.0,9.2
Fortuna,75.0,US,1603589881.0,81.0,40.6,-124.16,10.95,11.67,1016.0,-25200.0,10000.0,280.0,4.6
Petropavlovsk-Kamchatskiy,90.0,RU,1603589841.0,81.0,53.05,158.65,6.0,6.0,1004.0,43200.0,10000.0,80.0,5.0
Saint-Philippe,0.0,RE,1603590133.0,49.0,-21.36,55.77,18.94,22.0,1017.0,14400.0,10000.0,50.0,3.1
Bezhetsk,77.0,RU,1603590133.0,91.0,57.79,36.7,1.76,1.76,1009.0,10800.0,10000.0,303.0,1.77
Souillac,75.0,MU,1603590133.0,94.0,-20.52,57.52,21.0,21.0,1018.0,14400.0,5000.0,100.0,7.2
Haines Junction,100.0,CA,1603590134.0,76.0,60.75,-137.51,-3.63,-3.63,1030.0,-25200.0,10000.0,174.0,0.42
Nikolskoye,90.0,RU,1603590134.0,86.0,59.7,30.79,3.55,4.0,1006.0,10800.0,10000.0,186.0,1.64
Hobart,40.0,AU,1603590083.0,43.0,-42.88,147.33,12.19,13.89,1025.0,39600.0,10000.0,210.0,5.1
Barrow,90.0,US,1603590080.0,96.0,71.29,-156.79,0.0,0.0,1016.0,-28800.0,10000.0,350.0,5.1
Upernavik,88.0,GL,1603589835.0,93.0,72.79,-56.15,-5.64,-5.64,1013.0,-10800.0,10000.0,125.0,3.44
Quzhou,67.0,CN,1603590134.0,65.0,28.96,118.87,16.64,16.64,1021.0,28800.0,10000.0,68.0,2.99
Samarai,59.0,PG,1603590135.0,80.0,-10.62,150.67,27.6,27.6,1010.0,36000.0,10000.0,176.0,2.75
Bullhead City,75.0,US,1603589868.0,30.0,35.15,-114.57,28.12,29.0,1007.0,-25200.0,10000.0,150.0,5.1
Esperance,0.0,AU,1603590135.0,52.0,-33.87,121.9,18.0,18.0,1022.0,28800.0,10000.0,30.0,6.2
Yuanping,0.0,CN,1603590135.0,34.0,38.72,112.76,14.36,14.36,1018.0,28800.0,10000.0,172.0,0.36
Saskylakh,100.0,RU,1603589853.0,94.0,71.92,114.08,-11.3,-11.3,1008.0,32400.0,2348.0,276.0,8.43
Yumen,87.0,CN,1603590135.0,63.0,40.28,97.2,5.54,5.54,1025.0,28800.0,10000.0,75.0,2.6
Tegul'det,100.0,RU,1603590136.0,93.0,57.31,88.17,-3.65,-3.65,1030.0,25200.0,10000.0,262.0,4.36
Isla,97.0,PH,1603590136.0,73.0,15.89,120.3,29.22,29.22,1010.0,28800.0,10000.0,114.0,2.0
Ilulissat,5.0,GL,1603589846.0,57.0,69.22,-51.1,-7.0,-7.0,1011.0,-10800.0,10000.0,90.0,6.2
Changji,0.0,CN,1603590136.0,86.0,44.02,87.32,5.0,5.0,1033.0,28800.0,10000.0,0.0,1.0
Saldanha,0.0,ZA,1603590136.0,92.0,-33.01,17.94,14.67,14.67,1016.0,7200.0,10000.0,186.0,1.85
Bredasdorp,15.0,ZA,1603590035.0,77.0,-34.53,20.04,17.0,17.0,1015.0,7200.0,10000.0,300.0,3.6
Touros,40.0,BR,1603590009.0,88.0,-5.2,-35.46,25.0,25.0,1013.0,-10800.0,10000.0,180.0,1.5
Kaeo,4.0,NZ,1603589879.0,64.0,-35.1,173.78,19.89,19.89,1025.0,46800.0,10000.0,38.0,3.56
Havøysund,75.0,NO,1603589881.0,86.0,71.0,24.66,3.0,3.0,1004.0,3600.0,10000.0,90.0,8.7
Lüderitz,29.0,NA,1603590137.0,63.0,-26.65,15.16,16.77,16.77,1012.0,7200.0,10000.0,165.0,7.21
Port Elizabeth,0.0,ZA,1603590049.0,93.0,-33.92,25.57,16.0,16.0,1012.0,7200.0,10000.0,240.0,2.1
Flinders,100.0,AU,1603589964.0,77.0,-34.58,150.86,13.26,14.44,1010.0,39600.0,10000.0,204.0,2.68
Vila Velha,40.0,BR,1603589897.0,94.0,-20.33,-40.29,22.86,23.89,1013.0,-10800.0,6000.0,20.0,3.1
Buraidah,0.0,SA,1603590138.0,44.0,26.33,43.98,14.0,14.0,1015.0,10800.0,10000.0,300.0,1.5
Kapaa,20.0,US,1603590138.0,66.0,22.08,-159.32,28.59,29.0,1012.0,-36000.0,10000.0,200.0,5.7
Bluff,93.0,NZ,1603590138.0,84.0,-46.6,168.33,12.47,12.47,1007.0,46800.0,10000.0,210.0,9.03
Vao,100.0,NC,1603589864.0,79.0,-22.67,167.48,23.03,23.03,1016.0,39600.0,10000.0,95.0,6.18
Walvis Bay,18.0,NA,1603590139.0,93.0,-22.96,14.51,13.66,14.44,1014.0,7200.0,10000.0,10.0,5.7
Ardakān,0.0,IR,1603590139.0,57.0,32.31,54.02,7.51,7.51,1023.0,12600.0,10000.0,275.0,0.1
Farmington,1.0,US,1603590002.0,17.0,36.73,-108.22,19.0,19.0,1013.0,-21600.0,10000.0,260.0,2.1
Geraldton,0.0,AU,1603590139.0,15.0,-28.77,114.6,32.0,32.0,1010.0,28800.0,10000.0,30.0,8.7
Cherskiy,12.0,RU,1603590139.0,94.0,68.75,161.3,-7.46,-7.46,1016.0,39600.0,10000.0,231.0,2.4
Nuristan,99.0,AF,1603590140.0,99.0,35.3,70.83,-5.62,-5.62,1021.0,16200.0,535.0,342.0,1.61
Cafarnaum,20.0,BR,1603590140.0,79.0,-11.69,-41.47,20.74,20.74,1012.0,-10800.0,10000.0,105.0,3.42
Hermanus,37.0,ZA,1603590140.0,82.0,-34.42,19.23,16.11,16.11,1016.0,7200.0,10000.0,240.0,1.34
Codrington,83.0,AU,1603590140.0,65.0,-38.27,141.97,11.52,11.52,1024.0,39600.0,10000.0,154.0,10.2
New Norfolk,75.0,AU,1603590140.0,44.0,-42.78,147.06,11.37,13.89,1024.0,39600.0,10000.0,164.0,0.89
Ashcroft,75.0,CA,1603590140.0,58.0,50.72,-121.29,-4.21,-1.0,1037.0,-25200.0,10000.0,270.0,5.1
Henties Bay,0.0,NA,1603589865.0,90.0,-22.12,14.28,14.44,14.44,1014.0,7200.0,10000.0,221.0,2.03
Luanda,75.0,AO,1603590008.0,88.0,-8.84,13.23,24.0,24.0,1009.0,3600.0,10000.0,240.0,2.1
Ituverava,66.0,BR,1603590141.0,91.0,-20.34,-47.78,20.12,20.12,1011.0,-10800.0,10000.0,56.0,1.98
Krasnosel'kup,76.0,RU,1603589868.0,94.0,65.7,82.47,-14.27,-14.27,1021.0,18000.0,10000.0,198.0,4.14
Khatanga,100.0,RU,1603589847.0,95.0,71.97,102.5,-13.99,-13.99,1014.0,25200.0,196.0,243.0,6.29
Sisimiut,0.0,GL,1603589911.0,88.0,66.94,-53.67,-5.6,-5.6,1009.0,-10800.0,10000.0,86.0,5.77
Mathbaria,85.0,BD,1603590141.0,85.0,22.29,89.96,25.53,25.53,1011.0,21600.0,10000.0,313.0,1.82
Klaksvík,100.0,FO,1603590142.0,87.0,62.23,-6.59,7.0,7.0,976.0,0.0,10000.0,130.0,7.7
Wakefield,37.0,GB,1603589856.0,89.0,53.68,-1.5,7.37,7.78,978.0,0.0,10000.0,218.0,4.72
Bayan,0.0,CN,1603590142.0,62.0,46.08,127.4,6.23,6.23,1017.0,28800.0,10000.0,311.0,4.24
Qeshm,0.0,IR,1603590142.0,22.0,26.96,56.27,21.5,22.0,1013.0,12600.0,10000.0,360.0,3.1
Tiksi,100.0,RU,1603590142.0,91.0,71.69,128.87,-12.29,-12.29,1008.0,32400.0,10000.0,234.0,12.02
Doha,0.0,QA,1603590143.0,65.0,25.29,51.53,24.32,25.0,1012.0,10800.0,10000.0,320.0,1.5
Lorengau,44.0,PG,1603590143.0,60.0,-2.02,147.27,30.16,30.16,1009.0,36000.0,10000.0,80.0,3.07
Anatolikó,100.0,GR,1603590143.0,57.0,40.66,22.71,17.06,17.78,1011.0,7200.0,10000.0,355.0,1.18
Punta Arenas,90.0,CL,1603590143.0,93.0,-53.15,-70.92,5.77,6.0,1009.0,-10800.0,10000.0,80.0,6.2
Santo Antônio do Içá,33.0,BR,1603590143.0,76.0,-3.1,-67.94,25.42,25.42,1009.0,-14400.0,10000.0,11.0,0.91
Marabu,40.0,MY,1603589890.0,88.0,4.41,114.01,27.89,28.0,1011.0,28800.0,10000.0,0.0,1.0
Port Alfred,1.0,ZA,1603590143.0,90.0,-33.59,26.89,18.43,18.43,1012.0,7200.0,10000.0,259.0,3.21
Khuzdar,0.0,PK,1603590144.0,37.0,27.74,66.64,12.28,12.28,1014.0,18000.0,10000.0,302.0,2.51
Hilo,20.0,US,1603590144.0,66.0,19.73,-155.09,25.48,29.0,1012.0,-36000.0,10000.0,130.0,7.2
Kīhei,40.0,US,1603590144.0,49.0,20.79,-156.47,28.06,33.0,1012.0,-36000.0,10000.0,40.0,6.2
Ponta do Sol,20.0,PT,1603589847.0,72.0,32.67,-17.1,15.63,18.0,1027.0,0.0,10000.0,340.0,3.1
Ribeira Grande,100.0,PT,1603590144.0,78.0,38.52,-28.7,18.93,18.93,1026.0,-3600.0,10000.0,324.0,6.32
Shīeli,100.0,KZ,1603590144.0,62.0,44.17,66.75,4.57,4.57,1028.0,18000.0,10000.0,170.0,3.09
Hirara,40.0,JP,1603590145.0,60.0,24.8,125.28,24.41,25.0,1018.0,32400.0,10000.0,50.0,6.7
Qarayeri,20.0,AZ,1603590145.0,71.0,40.79,46.31,11.0,11.0,1019.0,14400.0,10000.0,200.0,3.1
Yārāda,40.0,IN,1603589848.0,100.0,17.65,83.27,24.0,24.0,1010.0,19800.0,1500.0,0.0,1.0
Pisco,0.0,PE,1603590145.0,82.0,-13.7,-76.22,16.86,17.0,1015.0,-18000.0,10000.0,220.0,5.7
Qaanaaq,100.0,GL,1603590145.0,92.0,77.48,-69.36,-8.08,-8.08,1011.0,-10800.0,1128.0,86.0,5.75
Popondetta,26.0,PG,1603590145.0,52.0,-8.75,148.25,32.94,32.94,1010.0,36000.0,10000.0,47.0,3.25
Cape Town,40.0,ZA,1603590085.0,82.0,-33.93,18.42,15.22,15.56,1017.0,7200.0,10000.0,0.0,1.0
Rock Sound,100.0,BS,1603590146.0,82.0,24.9,-76.2,25.93,25.93,1014.0,-14400.0,10000.0,149.0,7.85
San Patricio,20.0,US,1603590146.0,60.0,28.02,-97.52,19.76,21.67,1015.0,-18000.0,10000.0,120.0,2.1
Sembakung,100.0,ID,1603590146.0,80.0,3.82,117.25,27.47,27.47,1012.0,28800.0,10000.0,265.0,0.63
Santander,100.0,ES,1603590146.0,55.0,43.46,-3.8,19.25,19.44,1009.0,3600.0,7000.0,210.0,9.8
Mayo,75.0,US,1603590146.0,77.0,38.89,-76.51,16.55,17.22,1017.0,-14400.0,10000.0,10.0,5.7
Alta Floresta,100.0,BR,1603590147.0,96.0,-9.88,-56.09,21.53,21.53,1011.0,-14400.0,10000.0,245.0,1.13
Atuona,30.0,PF,1603589930.0,76.0,-9.8,-139.03,25.83,25.83,1011.0,-34200.0,10000.0,69.0,8.76
Ansalta,65.0,RU,1603590147.0,41.0,42.69,46.12,11.42,11.42,1019.0,10800.0,10000.0,195.0,1.29
Griffith,90.0,US,1603590147.0,70.0,41.53,-87.42,5.85,6.67,1023.0,-18000.0,10000.0,50.0,3.6
Kununurra,61.0,AU,1603590147.0,49.0,-15.77,128.73,34.0,34.0,1009.0,28800.0,10000.0,80.0,3.1
Tuktoyaktuk,75.0,CA,1603590147.0,79.0,69.45,-133.04,-5.0,-5.0,1014.0,-21600.0,10000.0,250.0,5.7
General Roca,75.0,AR,1603590148.0,29.0,-39.03,-67.58,19.0,19.0,1010.0,-10800.0,10000.0,230.0,8.2
Chernyshevskiy,100.0,RU,1603590148.0,96.0,63.01,112.47,-3.22,-3.22,1022.0,32400.0,10000.0,305.0,1.25
Bathsheba,75.0,BB,1603590148.0,74.0,13.22,-59.52,28.0,28.0,1013.0,-14400.0,10000.0,80.0,11.3
Bethel,38.0,US,1603590140.0,77.0,41.37,-73.41,8.29,8.89,1014.0,-14400.0,10000.0,144.0,0.45
Xining,100.0,CN,1603590148.0,57.0,36.62,101.77,7.69,7.69,1019.0,28800.0,10000.0,19.0,1.25
Beloha,74.0,MG,1603590042.0,81.0,-25.17,45.05,19.92,19.92,1014.0,10800.0,10000.0,56.0,2.49
Bourail,0.0,NC,1603590149.0,48.0,-21.57,165.48,29.5,29.5,1014.0,39600.0,10000.0,91.0,2.59
Husavik,90.0,IS,1603590149.0,80.0,66.04,-17.34,5.0,5.0,985.0,0.0,10000.0,10.0,9.3
Nishihara,20.0,JP,1603590149.0,41.0,26.18,127.76,24.24,25.0,1020.0,32400.0,10000.0,40.0,6.2
Yatou,100.0,CN,1603590149.0,33.0,37.15,122.38,16.11,16.11,1021.0,28800.0,10000.0,238.0,3.06
Owensboro,90.0,US,1603589897.0,71.0,37.77,-87.11,11.9,12.0,1019.0,-18000.0,10000.0,20.0,3.1
Seoul,1.0,KR,1603589871.0,62.0,37.57,126.98,13.61,15.0,1021.0,32400.0,10000.0,291.0,2.34
Kungsbacka,90.0,SE,1603590150.0,100.0,57.49,12.08,10.73,11.67,1002.0,3600.0,10000.0,170.0,6.2
Erzin,100.0,TR,1603590150.0,27.0,36.96,36.2,23.89,23.89,1010.0,10800.0,10000.0,336.0,5.81
Banda Aceh,100.0,ID,1603589995.0,83.0,5.56,95.32,24.8,24.8,1013.0,25200.0,10000.0,152.0,2.38
Hithadhoo,40.0,MV,1603590150.0,73.0,-0.6,73.08,28.49,28.49,1011.0,18000.0,10000.0,303.0,3.83
Olafsvik,100.0,IS,1603590150.0,80.0,64.89,-23.71,5.23,5.23,987.0,0.0,10000.0,33.0,17.65
Iqaluit,75.0,CA,1603589876.0,79.0,63.75,-68.51,-3.0,-3.0,1008.0,-14400.0,6437.0,130.0,3.1
Turukhansk,99.0,RU,1603590151.0,95.0,65.82,87.98,-12.83,-12.83,1023.0,25200.0,1221.0,156.0,2.39
Quatre Cocos,75.0,MU,1603590151.0,94.0,-20.21,57.76,20.48,21.0,1018.0,14400.0,5000.0,100.0,7.2
Yellowknife,75.0,CA,1603590151.0,67.0,62.46,-114.35,-4.85,-4.44,1028.0,-21600.0,10000.0,310.0,1.5
Tangier,0.0,MA,1603590151.0,93.0,35.78,-5.81,13.0,13.0,1024.0,3600.0,10000.0,70.0,1.5
Kavaratti,0.0,IN,1603590087.0,69.0,10.57,72.64,27.63,27.63,1011.0,19800.0,10000.0,221.0,2.96
Port Hardy,5.0,CA,1603590152.0,48.0,50.7,-127.42,7.0,7.0,1029.0,-25200.0,10000.0,70.0,5.7
Cidreira,8.0,BR,1603590152.0,92.0,-30.18,-50.21,20.3,20.3,1012.0,-10800.0,10000.0,56.0,7.29
Galway,75.0,IE,1603590152.0,87.0,53.27,-9.05,7.68,8.0,984.0,0.0,10000.0,190.0,6.2
Yangi Marg`ilon,91.0,UZ,1603590016.0,64.0,40.43,71.72,4.0,4.0,1027.0,18000.0,10000.0,180.0,3.1
Eureka,90.0,US,1603589952.0,76.0,40.8,-124.16,11.6,12.0,1015.0,-25200.0,10000.0,340.0,3.6
Constitución,89.0,CL,1603590153.0,86.0,-35.33,-72.42,11.59,11.59,1022.0,-10800.0,10000.0,196.0,4.38
Yarmouth,90.0,US,1603590153.0,82.0,41.71,-70.23,15.16,16.0,1013.0,-14400.0,10000.0,350.0,5.7
Jamestown,90.0,US,1603590153.0,70.0,42.1,-79.24,4.89,5.56,1022.0,-14400.0,10000.0,10.0,1.5
Bambous Virieux,75.0,MU,1603590153.0,94.0,-20.34,57.76,20.53,21.0,1018.0,14400.0,5000.0,100.0,7.2
Tuy Hoa,99.0,VN,1603590153.0,75.0,13.08,109.3,27.02,27.02,1012.0,25200.0,10000.0,171.0,2.57
East London,14.0,ZA,1603590153.0,89.0,-33.02,27.91,20.3,20.3,1012.0,7200.0,10000.0,244.0,1.98
Abnūb,0.0,EG,1603590154.0,51.0,27.27,31.15,18.28,18.28,1013.0,7200.0,10000.0,335.0,2.84
Poum,69.0,NC,1603590154.0,77.0,-20.23,164.02,25.73,25.73,1013.0,39600.0,10000.0,73.0,8.64
Arlit,0.0,NE,1603590154.0,17.0,18.74,7.39,24.51,24.51,1014.0,3600.0,10000.0,53.0,3.98
Farap,0.0,TM,1603590154.0,69.0,39.17,63.61,3.0,3.0,1026.0,18000.0,10000.0,0.0,1.0
Villa Guerrero,20.0,MX,1603590154.0,33.0,18.87,-99.65,15.86,22.78,1028.0,-18000.0,10000.0,30.0,3.1
Vaitape,100.0,PF,1603590155.0,75.0,-16.52,-151.75,26.7,26.7,1009.0,-36000.0,6817.0,359.0,5.22
Kissidougou,0.0,GN,1603590155.0,70.0,9.18,-10.1,20.29,20.29,1012.0,0.0,10000.0,193.0,1.51
Ayan,100.0,RU,1603590155.0,75.0,56.45,138.17,3.43,3.43,1014.0,36000.0,10000.0,316.0,5.67
Pangnirtung,83.0,CA,1603590155.0,86.0,66.15,-65.71,-8.55,-8.55,1008.0,-14400.0,10000.0,48.0,2.43
Ostashkov,100.0,RU,1603590155.0,94.0,57.15,33.11,4.5,4.5,1009.0,10800.0,10000.0,232.0,1.54
Klyavlino,100.0,RU,1603590155.0,93.0,54.26,52.03,6.5,6.5,1010.0,14400.0,10000.0,235.0,1.62
Lieksa,79.0,FI,1603590156.0,87.0,63.32,30.02,1.7,1.7,1005.0,7200.0,10000.0,294.0,5.23
Sooke,0.0,CA,1603590000.0,59.0,48.37,-123.73,4.44,5.0,1028.0,-25200.0,10000.0,113.0,0.45
Nouadhibou,0.0,MR,1603590156.0,69.0,20.93,-17.03,23.0,23.0,1015.0,0.0,10000.0,20.0,8.7
Markova,100.0,UA,1603590156.0,92.0,48.68,24.41,10.66,10.66,1017.0,7200.0,10000.0,75.0,0.83
São Gabriel da Cachoeira,1.0,BR,1603590156.0,92.0,-0.13,-67.09,23.35,23.35,1009.0,-14400.0,10000.0,16.0,0.55
Mazamet,0.0,FR,1603590157.0,71.0,43.49,2.37,9.62,11.0,1014.0,3600.0,10000.0,100.0,3.1
Kuminskiy,99.0,RU,1603590158.0,99.0,58.67,66.57,-1.11,-1.11,1005.0,18000.0,202.0,135.0,2.72
Shepsi,0.0,RU,1603590080.0,35.0,44.04,39.15,19.15,19.15,1017.0,10800.0,10000.0,28.0,1.36
Ust-Tsilma,100.0,RU,1603589984.0,98.0,65.44,52.15,-3.81,-3.81,1000.0,10800.0,164.0,104.0,1.88
Wewak,27.0,PG,1603590158.0,73.0,-3.55,143.63,28.53,28.53,1009.0,36000.0,10000.0,48.0,2.11
Tahe,0.0,CN,1603590158.0,75.0,52.33,124.73,3.17,3.17,1021.0,28800.0,10000.0,293.0,1.46
Tilichiki,20.0,RU,1603590158.0,86.0,60.47,166.1,1.37,1.37,1018.0,43200.0,10000.0,90.0,0.4
Bairiki Village,20.0,KI,1603590064.0,66.0,1.33,172.98,30.0,30.0,1009.0,43200.0,10000.0,130.0,3.6
Smithers,5.0,CA,1603590004.0,49.0,54.78,-127.17,-3.0,-3.0,1037.0,-25200.0,10000.0,120.0,1.0
Buala,38.0,SB,1603590159.0,71.0,-8.14,159.59,29.85,29.85,1009.0,39600.0,10000.0,110.0,2.6
Hokitika,100.0,NZ,1603589872.0,96.0,-42.72,170.97,15.55,15.55,1017.0,46800.0,4923.0,353.0,4.85
Coquimbo,6.0,CL,1603589596.0,82.0,-29.95,-71.34,13.0,13.0,1019.0,-10800.0,10000.0,330.0,3.6
Tazovsky,92.0,RU,1603590159.0,97.0,67.47,78.7,-10.15,-10.15,1017.0,18000.0,5520.0,229.0,2.81
Los Llanos de Aridane,90.0,ES,1603589967.0,73.0,28.66,-17.92,17.68,21.0,1025.0,0.0,10000.0,330.0,4.6
Charter Township of Clinton,40.0,US,1603590160.0,86.0,42.59,-82.92,3.97,5.0,1023.0,-14400.0,10000.0,360.0,2.1
Nuevo Progreso,18.0,MX,1603590160.0,66.0,23.17,-97.95,24.84,25.0,1018.0,-18000.0,10000.0,315.0,0.45
Departamento de Maldonado,90.0,UY,1603590146.0,93.0,-34.67,-54.92,15.61,17.0,1013.0,-10800.0,10000.0,60.0,2.6
Qui Nhon,100.0,VN,1603589992.0,76.0,13.77,109.23,26.89,26.89,1012.0,25200.0,10000.0,166.0,3.79
La Santisima Trinidad,100.0,BO,1603589994.0,50.0,-14.83,-64.9,30.41,30.41,1004.0,-14400.0,10000.0,342.0,1.59
Macheng,56.0,CN,1603590160.0,67.0,31.18,115.03,15.56,15.56,1004.0,28800.0,10000.0,79.0,0.76
Pineville,90.0,US,1603590161.0,87.0,31.32,-92.43,13.12,13.33,1016.0,-18000.0,10000.0,40.0,2.6
Coahuayana Viejo,62.0,MX,1603590161.0,90.0,18.73,-103.68,27.07,27.07,1012.0,-18000.0,10000.0,290.0,1.1
Port Moresby,20.0,PG,1603590161.0,62.0,-9.44,147.18,32.0,32.0,1011.0,36000.0,10000.0,210.0,7.7
Tibú,100.0,CO,1603590161.0,95.0,8.64,-72.74,23.91,23.91,1012.0,-18000.0,10000.0,250.0,1.1
Bunia,97.0,CD,1603590161.0,89.0,1.57,30.25,17.47,17.47,1010.0,7200.0,10000.0,91.0,0.89
Umeå,66.0,SE,1603590161.0,92.0,63.83,20.26,-8.0,-8.0,1005.0,3600.0,10000.0,280.0,0.5
Avarua,37.0,CK,1603590162.0,69.0,-21.21,-159.78,25.0,25.0,1013.0,-36000.0,10000.0,110.0,6.7
Camacha,20.0,PT,1603589887.0,77.0,33.08,-16.33,17.0,17.0,1027.0,0.0,10000.0,340.0,2.1
Sehithwa,9.0,BW,1603590162.0,31.0,-20.47,22.72,23.62,23.62,1010.0,7200.0,10000.0,91.0,3.1
Tasiilaq,79.0,GL,1603590147.0,69.0,65.61,-37.64,1.0,1.0,1006.0,-10800.0,10000.0,90.0,2.6
Muscle Shoals,57.0,US,1603590163.0,87.0,34.74,-87.67,12.53,13.33,1015.0,-18000.0,10000.0,1.0,2.31
Zaria,53.0,NG,1603590163.0,30.0,11.11,7.72,22.38,22.38,1011.0,3600.0,10000.0,47.0,3.37
Santa Maria,0.0,BR,1603589928.0,87.0,-29.68,-53.81,20.37,20.37,1011.0,-10800.0,10000.0,102.0,3.01
Ust'-Kan,48.0,RU,1603590163.0,84.0,50.93,84.76,-10.16,-10.16,1039.0,25200.0,10000.0,186.0,2.13
Milovice,0.0,CZ,1603590163.0,93.0,50.23,14.89,8.21,8.89,1015.0,3600.0,10000.0,190.0,3.1
Raudeberg,100.0,NO,1603590163.0,88.0,61.99,5.14,8.89,8.89,986.0,3600.0,4714.0,101.0,7.46
Cavnic,100.0,RO,1603590164.0,100.0,47.67,23.87,12.11,12.22,1016.0,7200.0,5000.0,90.0,1.5
Castro,98.0,BR,1603590164.0,92.0,-24.79,-50.01,16.66,16.66,1013.0,-10800.0,10000.0,61.0,0.86
Paraúna,100.0,BR,1603590164.0,79.0,-16.95,-50.45,21.86,21.86,1012.0,-10800.0,10000.0,343.0,3.59
Tuatapere,100.0,NZ,1603590165.0,68.0,-46.13,167.68,17.0,17.0,1008.0,46800.0,10000.0,240.0,4.94
Sangar,0.0,RU,1603590165.0,94.0,63.92,127.47,-8.11,-8.11,1026.0,32400.0,10000.0,130.0,1.45
Lisala,100.0,CD,1603590165.0,98.0,2.15,21.52,21.57,21.57,1009.0,3600.0,10000.0,256.0,0.82
Gifford,75.0,US,1603589877.0,78.0,27.68,-80.41,25.79,27.0,1013.0,-14400.0,10000.0,110.0,5.1
Talnakh,75.0,RU,1603590165.0,92.0,69.49,88.4,-11.0,-11.0,1017.0,25200.0,6000.0,200.0,5.0
Manacapuru,0.0,BR,1603590165.0,94.0,-3.3,-60.62,25.0,25.0,1009.0,-14400.0,10000.0,211.0,2.76
Grand-Santi,94.0,GF,1603590166.0,97.0,4.25,-54.38,23.01,23.01,1011.0,-10800.0,10000.0,39.0,0.82
Lebu,0.0,CL,1603590166.0,81.0,-37.62,-73.65,9.24,9.24,1023.0,-10800.0,10000.0,203.0,1.84
Parakai,59.0,NZ,1603590166.0,70.0,-36.65,174.43,20.99,22.22,1024.0,46800.0,10000.0,34.0,0.89
Verāval,41.0,IN,1603590166.0,60.0,20.9,70.37,26.88,26.88,1011.0,19800.0,10000.0,26.0,2.22
Kembaran,98.0,ID,1603590166.0,79.0,-7.38,110.0,19.39,23.33,798.0,25200.0,10000.0,175.0,0.88
Almuñécar,0.0,ES,1603590166.0,61.0,36.73,-3.69,14.33,16.67,1022.0,3600.0,10000.0,347.0,1.34
Sayyan,0.0,YE,1603590166.0,44.0,15.17,44.32,8.47,8.47,1015.0,10800.0,10000.0,56.0,1.42
Kamenka,100.0,RU,1603590167.0,94.0,51.32,42.77,11.11,11.11,1006.0,10800.0,10000.0,176.0,3.69
Clyde River,90.0,CA,1603589885.0,79.0,70.47,-68.59,-7.0,-7.0,1007.0,-14400.0,10000.0,290.0,4.1
Samaná,82.0,DO,1603590167.0,85.0,19.21,-69.34,25.54,25.54,1015.0,-14400.0,10000.0,129.0,3.29
Diego de Almagro,74.0,CL,1603590167.0,63.0,-26.37,-70.05,11.14,11.14,1020.0,-10800.0,10000.0,177.0,0.65
Mossamedes,81.0,AO,1603590167.0,82.0,-15.2,12.15,19.75,19.75,1010.0,3600.0,10000.0,242.0,2.04
Karpogory,100.0,RU,1603590167.0,98.0,64.0,44.45,-1.8,-1.8,999.0,10800.0,8060.0,212.0,2.39
Machalí,100.0,CL,1603590167.0,76.0,-34.18,-70.67,12.11,12.11,1018.0,-10800.0,10000.0,249.0,1.38
Lagos,83.0,NG,1603589952.0,89.0,6.58,3.75,25.26,25.26,1010.0,3600.0,10000.0,243.0,1.96
Jumla,0.0,NP,1603590168.0,37.0,29.27,82.18,10.82,10.82,1020.0,20700.0,10000.0,99.0,1.87
Winneba,40.0,GH,1603590168.0,83.0,5.35,-0.62,27.0,27.0,1011.0,0.0,10000.0,230.0,5.1
Waterloo,90.0,CA,1603590107.0,82.0,43.47,-80.52,2.68,3.33,1023.0,-14400.0,10000.0,340.0,2.1
Portland,75.0,US,1603589837.0,49.0,45.52,-122.68,7.56,9.0,1024.0,-25200.0,10000.0,90.0,8.7
Samoylovka,100.0,RU,1603590168.0,93.0,51.18,43.71,11.33,11.33,1009.0,14400.0,10000.0,171.0,2.43
Stawell,92.0,AU,1603590169.0,63.0,-37.05,142.77,9.67,9.67,1021.0,39600.0,10000.0,160.0,9.11
Faro,0.0,PT,1603590169.0,87.0,37.02,-7.93,13.0,13.0,1024.0,0.0,10000.0,310.0,3.1
Mt. Pleasant,90.0,US,1603589969.0,100.0,32.79,-79.86,22.47,23.33,1015.0,-14400.0,10000.0,126.0,3.9
Teya,99.0,RU,1603590169.0,96.0,60.38,92.63,-3.69,-3.69,1023.0,25200.0,521.0,231.0,2.02
Cochrane,75.0,CA,1603590131.0,77.0,51.18,-114.47,-14.43,-13.0,1031.0,-21600.0,10000.0,300.0,1.5
Linxia Chengguanzhen,95.0,CN,1603590170.0,46.0,35.6,103.21,11.69,11.69,1018.0,28800.0,10000.0,347.0,1.86
Rawson,55.0,AR,1603590170.0,59.0,-43.3,-65.1,14.64,14.64,1006.0,-10800.0,10000.0,193.0,5.26
Ndago,44.0,TZ,1603590170.0,73.0,-4.6,34.35,17.85,17.85,1011.0,10800.0,10000.0,91.0,3.16
Bar Harbor,90.0,US,1603590170.0,66.0,44.39,-68.2,9.04,10.0,1013.0,-14400.0,10000.0,340.0,4.6
San Cristobal,21.0,VE,1603590170.0,83.0,7.77,-72.22,19.24,19.24,1013.0,-14400.0,10000.0,20.0,0.59
Dikson,42.0,RU,1603590171.0,92.0,73.51,80.55,-5.57,-5.57,1016.0,25200.0,10000.0,182.0,2.35
Yagodnoye,100.0,RU,1603590171.0,94.0,62.55,149.67,-0.49,-0.49,1016.0,39600.0,10000.0,338.0,1.54
Trairi,8.0,BR,1603590171.0,81.0,-3.28,-39.27,26.31,26.31,1010.0,-10800.0,10000.0,96.0,5.46
Kalmunai,100.0,LK,1603590171.0,70.0,7.42,81.82,27.6,27.6,1011.0,19800.0,10000.0,194.0,0.73
Carnarvon,90.0,AU,1603590172.0,83.0,-24.87,113.63,23.0,23.0,1011.0,28800.0,10000.0,220.0,7.7
Mehamn,99.0,NO,1603590172.0,80.0,71.04,27.85,2.72,2.72,1005.0,3600.0,10000.0,84.0,5.1
Ossora,100.0,RU,1603590011.0,77.0,59.24,163.07,5.43,5.43,1015.0,43200.0,10000.0,177.0,4.43
Formosa do Rio Preto,91.0,BR,1603590020.0,78.0,-11.05,-45.19,23.1,23.1,1011.0,-10800.0,10000.0,238.0,1.3
Ancud,20.0,CL,1603590172.0,93.0,-41.87,-73.82,5.14,7.22,1017.0,-10800.0,10000.0,330.0,2.1
Kaoma,94.0,ZM,1603590172.0,33.0,-14.78,24.8,17.38,17.38,1011.0,7200.0,10000.0,74.0,2.15
Venice,90.0,US,1603590095.0,69.0,27.1,-82.45,27.7,28.33,1012.0,-14400.0,10000.0,90.0,2.6
Sebastian,90.0,US,1603590173.0,71.0,35.17,-94.27,10.89,11.11,1017.0,-18000.0,10000.0,110.0,2.1
Tomatlán,13.0,MX,1603590173.0,92.0,19.93,-105.25,25.77,25.77,1012.0,-18000.0,10000.0,278.0,1.3
Vila Franca do Campo,75.0,PT,1603590173.0,93.0,37.72,-25.43,18.0,18.0,1025.0,-3600.0,10000.0,320.0,1.5
Kuito,76.0,AO,1603590174.0,72.0,-12.38,16.93,17.82,17.82,1012.0,3600.0,10000.0,306.0,2.27
Norman Wells,75.0,CA,1603590174.0,85.0,65.28,-126.83,-6.0,-6.0,1023.0,-21600.0,10000.0,70.0,2.1
Vilyuysk,87.0,RU,1603590174.0,92.0,63.76,121.62,-4.85,-4.85,1021.0,32400.0,10000.0,177.0,2.77
Jardim,1.0,BR,1603590174.0,85.0,-21.48,-56.14,23.63,23.63,1008.0,-14400.0,10000.0,125.0,0.88
Villazón,39.0,BO,1603590174.0,54.0,-22.09,-65.59,13.24,13.24,1014.0,-14400.0,10000.0,34.0,1.85
Debre Birhan,20.0,ET,1603590175.0,75.0,9.68,39.53,7.41,7.41,1015.0,10800.0,10000.0,100.0,1.8
Broome,90.0,US,1603590175.0,70.0,42.25,-75.83,4.0,6.11,1020.0,-14400.0,10000.0,340.0,5.1
Victor Harbor,20.0,AU,1603589977.0,53.0,-35.57,138.62,13.89,13.89,1023.0,37800.0,10000.0,273.0,0.45
Zhezkazgan,96.0,KZ,1603590175.0,65.0,47.8,67.71,2.43,2.43,1027.0,21600.0,10000.0,208.0,7.18
Yambio,95.0,SS,1603590175.0,95.0,4.57,28.4,20.34,20.34,1009.0,10800.0,10000.0,74.0,0.83
Gusau,100.0,NG,1603590175.0,26.0,12.16,6.66,24.36,24.36,1010.0,3600.0,10000.0,38.0,3.76
Balabac,100.0,PH,1603590175.0,79.0,7.99,117.06,27.81,27.81,1011.0,28800.0,10000.0,279.0,3.83
Bāntva,26.0,IN,1603590176.0,64.0,21.49,70.07,25.89,25.89,1010.0,19800.0,10000.0,26.0,1.86
Gopālpur,100.0,IN,1603590176.0,64.0,19.27,84.92,25.85,25.85,1011.0,19800.0,10000.0,321.0,2.76
Lompoc,90.0,US,1603590176.0,68.0,34.64,-120.46,16.83,18.0,1014.0,-25200.0,10000.0,300.0,2.6
Yulara,0.0,AU,1603590176.0,30.0,-25.24,130.99,21.0,21.0,1019.0,34200.0,10000.0,70.0,8.2
Vestmannaeyjar,100.0,IS,1603589953.0,68.0,63.44,-20.27,7.23,7.23,976.0,0.0,10000.0,9.0,11.19
Boyolangu,92.0,ID,1603590176.0,70.0,-8.12,111.89,28.57,28.57,1013.0,25200.0,10000.0,165.0,2.57
Rāwah,0.0,IQ,1603590177.0,34.0,34.48,41.91,16.92,16.92,1013.0,10800.0,10000.0,317.0,1.28
Guerrero Negro,0.0,MX,1603590177.0,83.0,27.98,-114.06,19.26,19.26,1013.0,-21600.0,10000.0,322.0,6.62
Mnogovershinnyy,100.0,RU,1603590177.0,99.0,53.94,139.92,3.08,3.08,1003.0,36000.0,1609.0,7.0,7.77
Kungurtug,100.0,RU,1603590092.0,90.0,50.6,97.52,-2.51,-2.51,1026.0,25200.0,10000.0,310.0,4.12
Kruisfontein,0.0,ZA,1603590177.0,90.0,-34.0,24.73,15.56,15.56,1013.0,7200.0,10000.0,255.0,2.61
Itaituba,95.0,BR,1603590177.0,86.0,-4.28,-55.98,24.58,24.58,1009.0,-10800.0,10000.0,230.0,0.58
Novi Bečej,100.0,RS,1603590178.0,97.0,45.6,20.14,13.92,13.92,1013.0,3600.0,9474.0,89.0,1.6
Kapoeta,0.0,SS,1603590178.0,74.0,4.77,33.59,24.63,24.63,1007.0,10800.0,10000.0,272.0,0.64
Payakumbuh,98.0,ID,1603590178.0,66.0,-0.22,100.63,26.78,26.78,1013.0,25200.0,10000.0,246.0,1.3
Oriximiná,73.0,BR,1603590178.0,48.0,-1.77,-55.87,27.37,27.37,1008.0,-10800.0,10000.0,118.0,0.82
Ketchikan,1.0,US,1603590178.0,47.0,55.34,-131.65,4.18,6.0,1035.0,-28800.0,10000.0,0.0,2.1
Ulladulla,90.0,AU,1603590181.0,76.0,-35.35,150.47,10.82,12.22,1015.0,39600.0,10000.0,190.0,5.7
Fort Nelson,40.0,CA,1603590029.0,49.0,58.81,-122.7,-3.0,-3.0,1031.0,-25200.0,10000.0,187.0,1.15
Zheleznodorozhnyy,75.0,RU,1603590181.0,87.0,55.75,38.0,7.73,8.0,1008.0,10800.0,10000.0,330.0,2.0
Sabha,0.0,LY,1603590181.0,32.0,27.04,14.43,17.51,17.51,1019.0,7200.0,10000.0,113.0,3.25
Asău,100.0,RO,1603589920.0,98.0,46.43,26.4,11.11,11.11,1016.0,7200.0,10000.0,48.0,0.87
Aswān,0.0,EG,1603590182.0,35.0,24.09,32.91,21.87,21.87,1011.0,7200.0,10000.0,346.0,6.08
Tambura,95.0,SS,1603590142.0,93.0,5.6,27.47,21.26,21.26,1008.0,10800.0,10000.0,30.0,0.32
Lukulu,81.0,ZM,1603590182.0,28.0,-14.37,23.24,19.6,19.6,1010.0,7200.0,10000.0,101.0,2.86
Collie,11.0,AU,1603590182.0,32.0,-33.37,116.15,22.41,26.11,1008.0,28800.0,10000.0,38.0,3.71
Livingston,0.0,GB,1603589944.0,81.0,55.9,-3.52,6.48,7.0,984.0,0.0,10000.0,190.0,4.6
Xuchang,6.0,CN,1603590182.0,44.0,34.02,113.82,15.0,15.0,1021.0,28800.0,7000.0,200.0,2.0
Aklavik,40.0,CA,1603590183.0,62.0,68.22,-135.01,-4.0,-4.0,1016.0,-21600.0,10000.0,140.0,2.6
Naze,40.0,JP,1603590183.0,53.0,28.37,129.48,24.02,25.0,1019.0,32400.0,10000.0,30.0,6.2
Mexico,75.0,PH,1603590183.0,83.0,15.06,120.72,28.0,28.0,1010.0,28800.0,7000.0,350.0,4.1
Adrar,95.0,MR,1603590015.0,13.0,20.5,-10.07,30.43,30.43,1014.0,0.0,10000.0,67.0,3.11
Vestmanna,96.0,FO,1603590183.0,87.0,62.16,-7.17,7.0,7.0,976.0,0.0,10000.0,130.0,7.7
Havre-St-Pierre,1.0,CA,1603590183.0,86.0,50.23,-63.6,3.0,3.0,1007.0,-14400.0,10000.0,310.0,3.1
Sur,0.0,OM,1603590184.0,50.0,22.57,59.53,24.99,24.99,1013.0,14400.0,10000.0,4.0,5.62
Ocampo,0.0,MX,1603590184.0,62.0,21.65,-101.5,14.21,14.21,1018.0,-18000.0,10000.0,99.0,4.07
Paradise Valley,1.0,US,1603590184.0,26.0,33.53,-111.94,26.16,28.0,1011.0,-25200.0,10000.0,270.0,2.47
Kasongo,100.0,CD,1603590184.0,95.0,-4.45,26.67,20.2,20.2,1007.0,7200.0,10000.0,30.0,0.94
Río Gallegos,90.0,AR,1603590184.0,93.0,-51.62,-69.22,7.0,7.0,1007.0,-10800.0,7000.0,30.0,3.1
Kavieng,47.0,PG,1603590185.0,68.0,-2.57,150.8,29.23,29.23,1009.0,36000.0,10000.0,70.0,1.32
Huicheng,0.0,CN,1603590185.0,56.0,23.04,116.29,23.0,23.0,1018.0,28800.0,10000.0,70.0,2.0
Härnösand,100.0,SE,1603590185.0,92.0,62.63,17.94,-2.49,-2.0,1005.0,3600.0,10000.0,310.0,2.1
Chokurdakh,43.0,RU,1603590185.0,97.0,70.63,147.92,-9.97,-9.97,1017.0,39600.0,10000.0,223.0,3.32
Yining,99.0,CN,1603590185.0,64.0,29.04,114.56,15.5,15.5,1020.0,28800.0,10000.0,210.0,0.4
Narsaq,100.0,GL,1603590185.0,68.0,60.92,-46.05,-3.0,-3.0,1008.0,-10800.0,10000.0,0.0,0.5
Lufilufi,75.0,WS,1603590186.0,88.0,-13.87,-171.6,27.89,28.0,1008.0,50400.0,10000.0,90.0,3.6
Yinchuan,99.0,CN,1603590186.0,39.0,38.47,106.27,13.22,13.22,1020.0,28800.0,10000.0,319.0,0.58
Saint-Augustin,100.0,CA,1603590184.0,93.0,51.23,-58.65,8.04,8.04,1004.0,-14400.0,10000.0,234.0,7.06
Les Cayes,100.0,HT,1603590186.0,84.0,18.2,-73.75,26.61,26.61,1013.0,-14400.0,10000.0,92.0,3.47
Shenjiamen,2.0,CN,1603590186.0,57.0,29.96,122.3,18.22,18.22,1022.0,28800.0,10000.0,94.0,2.49
Safford,1.0,US,1603590186.0,22.0,32.83,-109.71,26.0,26.0,1013.0,-25200.0,10000.0,290.0,1.5
Lake Cowichan,20.0,CA,1603590186.0,60.0,48.83,-124.05,4.19,6.0,1029.0,-25200.0,10000.0,300.0,1.0
Zyryanka,0.0,RU,1603590187.0,94.0,65.75,150.85,-6.1,-6.1,1019.0,39600.0,10000.0,354.0,3.38
Severo-Kuril'sk,100.0,RU,1603590187.0,90.0,50.68,156.12,8.96,8.96,992.0,39600.0,10000.0,72.0,1.69
Caohai,99.0,CN,1603590187.0,84.0,26.87,104.28,11.68,11.68,1017.0,28800.0,10000.0,140.0,2.14
Mudgee,90.0,AU,1603590183.0,100.0,-32.59,149.59,13.96,14.0,1011.0,39600.0,5000.0,140.0,3.6
Oni,52.0,GE,1603590187.0,36.0,42.58,43.44,11.77,11.77,1019.0,14400.0,10000.0,45.0,2.05
Avera,75.0,US,1603590187.0,88.0,33.19,-82.53,21.89,23.0,1014.0,-14400.0,10000.0,140.0,3.1
Diapaga,63.0,BF,1603590188.0,27.0,12.07,1.79,26.23,26.23,1010.0,0.0,10000.0,77.0,1.41
Yazoo City,90.0,US,1603590188.0,100.0,32.86,-90.41,12.09,12.22,1016.0,-18000.0,10000.0,334.0,2.48
Chui,9.0,UY,1603590188.0,97.0,-33.7,-53.46,16.37,16.37,1013.0,-10800.0,10000.0,75.0,1.83
Bucine,66.0,IT,1603590188.0,94.0,43.48,11.61,12.02,12.22,1014.0,3600.0,10000.0,284.0,0.77
Vanimo,63.0,PG,1603590188.0,72.0,-2.67,141.3,28.86,28.86,1010.0,36000.0,10000.0,63.0,1.32
Prince Rupert,1.0,CA,1603590189.0,59.0,54.32,-130.32,3.0,3.0,1034.0,-25200.0,10000.0,67.0,1.55
Houma,1.0,US,1603590006.0,88.0,29.6,-90.72,19.64,20.0,1014.0,-18000.0,10000.0,350.0,2.6
Tacuarembó,0.0,UY,1603590189.0,95.0,-31.73,-55.98,19.41,19.41,1011.0,-10800.0,10000.0,95.0,2.75
North Bend,1.0,US,1603590189.0,76.0,43.41,-124.22,11.45,12.0,1020.0,-25200.0,10000.0,350.0,6.2
Aykhal,0.0,RU,1603590189.0,92.0,66.0,111.5,-14.0,-14.0,1015.0,32400.0,10000.0,260.0,3.0
Svetlaya,42.0,RU,1603590071.0,54.0,46.54,138.33,10.78,10.78,999.0,36000.0,10000.0,305.0,5.29
Charleston,75.0,US,1603590189.0,94.0,32.78,-79.93,22.45,23.33,1015.0,-14400.0,10000.0,127.0,3.27
Port Hedland,0.0,AU,1603590190.0,57.0,-20.32,118.57,27.0,27.0,1011.0,28800.0,10000.0,310.0,5.1
Santa Marta,100.0,CO,1603590190.0,80.0,11.24,-74.2,27.22,27.22,1011.0,-18000.0,10000.0,290.0,0.89
Mount Hagen,5.0,PG,1603590190.0,50.0,-5.86,144.23,24.95,24.95,1011.0,36000.0,10000.0,124.0,1.17
Bayburt,95.0,TR,1603590190.0,59.0,40.26,40.23,6.14,6.14,1019.0,10800.0,10000.0,211.0,0.35
Gryazi,40.0,RU,1603590190.0,93.0,52.5,39.94,9.0,9.0,1007.0,10800.0,4000.0,10.0,2.0
Laguna,1.0,US,1603590190.0,63.0,38.42,-121.42,17.37,18.33,1012.0,-25200.0,10000.0,0.0,3.1
Necochea,3.0,AR,1603590007.0,90.0,-38.55,-58.74,15.0,15.0,1003.0,-10800.0,10000.0,60.0,5.36
Itarema,0.0,BR,1603589893.0,82.0,-2.92,-39.92,26.21,26.21,1010.0,-10800.0,10000.0,92.0,6.26
Neiafu,90.0,TO,1603589894.0,94.0,-18.65,-173.98,25.0,25.0,1011.0,46800.0,10000.0,110.0,2.1
Sarkand,82.0,KZ,1603590191.0,66.0,45.41,79.92,1.94,1.94,1032.0,21600.0,10000.0,157.0,1.73
Atambua,84.0,ID,1603590191.0,48.0,-9.11,124.89,32.26,32.26,1011.0,28800.0,10000.0,340.0,2.22
Kaitangata,100.0,NZ,1603590143.0,61.0,-46.28,169.85,19.24,19.24,1007.0,46800.0,10000.0,331.0,3.93
Arawa,59.0,PG,1603590191.0,68.0,-6.21,155.54,30.21,30.21,1009.0,39600.0,10000.0,99.0,1.98
Socastee,1.0,US,1603589975.0,94.0,33.68,-79.0,21.67,23.0,1015.0,-14400.0,10000.0,110.0,1.5
Chigorodó,97.0,CO,1603590192.0,93.0,7.67,-76.68,22.82,22.82,1012.0,-18000.0,10000.0,177.0,2.31
Kloulklubed,75.0,PW,1603590192.0,74.0,7.04,134.26,30.0,30.0,1012.0,32400.0,10000.0,170.0,2.6
Ahipara,45.0,NZ,1603590192.0,64.0,-35.17,173.17,20.12,20.12,1024.0,46800.0,10000.0,19.0,3.06
Lázaro Cárdenas,3.0,MX,1603590192.0,89.0,17.96,-102.2,27.3,27.3,1011.0,-18000.0,10000.0,284.0,2.59
Raghunathpur,0.0,IN,1603590192.0,56.0,23.55,86.67,24.49,24.49,1012.0,19800.0,10000.0,278.0,1.99
Alice,1.0,US,1603590193.0,68.0,27.75,-98.07,19.55,21.0,1014.0,-18000.0,10000.0,90.0,2.1
Antibes,20.0,FR,1603590193.0,87.0,43.56,7.13,12.41,13.33,1016.0,3600.0,10000.0,340.0,4.1
Hobyo,98.0,SO,1603590020.0,80.0,5.35,48.53,26.19,26.19,1010.0,10800.0,10000.0,217.0,1.78
Saint-Paul,0.0,RE,1603590193.0,56.0,-21.01,55.27,18.26,22.0,1016.0,14400.0,10000.0,130.0,7.2
Ixtapa,90.0,MX,1603590173.0,79.0,20.7,-105.2,30.0,30.0,1010.0,-18000.0,10000.0,150.0,2.1
Kidal,0.0,ML,1603590194.0,17.0,18.44,1.41,24.68,24.68,1014.0,0.0,10000.0,68.0,4.16
Tomé,75.0,CL,1603590194.0,93.0,-36.62,-72.95,11.0,11.0,1021.0,-10800.0,10000.0,0.0,1.0
Sola,3.0,VU,1603590194.0,80.0,-13.88,167.55,26.98,26.98,1010.0,39600.0,10000.0,117.0,6.81
Valle Hermoso,90.0,MX,1603590194.0,83.0,25.67,-97.83,21.51,22.0,1015.0,-18000.0,10000.0,50.0,4.6
Cabadiangan,100.0,PH,1603590194.0,79.0,9.75,122.47,27.52,27.52,1009.0,28800.0,10000.0,253.0,4.57
Staraya Poltavka,100.0,RU,1603590194.0,81.0,50.48,46.48,13.12,13.12,1010.0,14400.0,10000.0,227.0,1.25
Tarauacá,85.0,BR,1603590195.0,65.0,-8.16,-70.77,27.41,27.41,1009.0,-18000.0,10000.0,350.0,1.46
Cairns,4.0,AU,1603589957.0,58.0,-16.92,145.77,29.79,30.56,1012.0,36000.0,10000.0,10.0,3.6
Lerwick,6.0,GB,1603590195.0,81.0,60.15,-1.15,10.0,10.0,982.0,0.0,10000.0,190.0,6.2
Riyadh,0.0,SA,1603590023.0,35.0,24.69,46.72,15.0,15.0,1017.0,10800.0,10000.0,80.0,1.05
Aranos,100.0,NA,1603590196.0,23.0,-24.13,19.12,24.86,24.86,1011.0,7200.0,10000.0,32.0,3.1
Kjøllefjord,100.0,NO,1603590197.0,85.0,70.95,27.35,2.12,2.12,1005.0,3600.0,10000.0,84.0,4.38
Dekar,16.0,BW,1603590197.0,29.0,-21.53,21.93,22.64,22.64,1011.0,7200.0,10000.0,31.0,2.94
Cayenne,0.0,GF,1603590197.0,83.0,4.93,-52.33,27.0,27.0,1011.0,-10800.0,10000.0,100.0,1.0
Abu Dhabi,0.0,AE,1603590086.0,36.0,24.47,54.37,25.13,26.0,1012.0,14400.0,10000.0,70.0,3.1
Casablanca,40.0,MA,1603590197.0,100.0,33.59,-7.62,16.47,18.89,1025.0,3600.0,10000.0,60.0,2.1
Qaqortoq,100.0,GL,1603590198.0,68.0,60.72,-46.03,-3.0,-3.0,1008.0,-10800.0,10000.0,0.0,0.5
Port Blair,67.0,IN,1603590198.0,72.0,11.67,92.75,28.37,28.37,1011.0,19800.0,10000.0,256.0,0.26
Batagay-Alyta,100.0,RU,1603590030.0,87.0,67.8,130.41,-10.76,-10.76,1021.0,32400.0,10000.0,206.0,2.16
Kahului,40.0,US,1603589911.0,49.0,20.89,-156.47,28.1,33.0,1012.0,-36000.0,10000.0,40.0,6.2
Waingapu,100.0,ID,1603590198.0,56.0,-9.66,120.26,30.83,30.83,1012.0,28800.0,10000.0,59.0,2.87
Hong Kong,99.0,HK,1603589969.0,65.0,22.29,114.16,22.49,24.44,1016.0,28800.0,10000.0,61.0,2.68
Švenčionys,58.0,LT,1603590199.0,94.0,55.15,26.17,8.29,8.29,1012.0,7200.0,10000.0,260.0,3.44
Vinh Yen,75.0,VN,1603590199.0,77.0,21.31,105.6,21.0,21.0,1015.0,25200.0,6000.0,310.0,2.6
Mīzan Teferī,0.0,ET,1603590199.0,83.0,6.98,35.58,16.24,16.24,1011.0,10800.0,10000.0,88.0,1.44
Longyearbyen,75.0,SJ,1603590199.0,79.0,78.22,15.64,-6.0,-6.0,1014.0,3600.0,10000.0,0.0,0.5
Dandong,100.0,CN,1603590199.0,45.0,40.13,124.39,11.11,11.11,1020.0,28800.0,10000.0,71.0,1.28
Khovd,0.0,MN,1603590200.0,69.0,48.01,91.64,-0.72,-0.72,1032.0,25200.0,10000.0,250.0,2.37
Kologriv,54.0,RU,1603590200.0,97.0,58.83,44.32,-0.34,-0.34,1008.0,10800.0,10000.0,229.0,1.58
Vardø,100.0,NO,1603589904.0,74.0,70.37,31.11,3.93,3.93,1004.0,3600.0,10000.0,77.0,8.21
Gravdal,22.0,NO,1603590200.0,76.0,68.12,13.5,4.43,4.43,1001.0,3600.0,10000.0,84.0,6.55
San Juan,0.0,AR,1603590103.0,46.0,-31.54,-68.54,23.55,23.55,1007.0,-10800.0,10000.0,185.0,2.37
Marzuq,0.0,YE,1603590163.0,31.0,14.4,46.47,15.68,15.68,1014.0,10800.0,10000.0,300.0,1.11
Fallon,20.0,US,1603590201.0,19.0,39.47,-118.78,18.16,20.0,1011.0,-25200.0,10000.0,355.0,0.28
Shitanjing,100.0,CN,1603590201.0,44.0,39.23,106.34,10.98,10.98,1020.0,28800.0,10000.0,261.0,1.38
Sālūr,13.0,IN,1603590201.0,62.0,18.53,83.22,25.28,25.28,1012.0,19800.0,10000.0,299.0,1.22
Forécariah,47.0,GN,1603590201.0,91.0,9.43,-13.09,23.91,23.91,1011.0,0.0,10000.0,330.0,0.91
Meulaboh,100.0,ID,1603590201.0,94.0,4.14,96.13,23.48,23.48,1015.0,25200.0,10000.0,75.0,2.96
Porto-Novo,20.0,BJ,1603590076.0,88.0,6.5,2.6,27.0,27.0,1010.0,3600.0,10000.0,230.0,5.1
Palmer,10.0,US,1603589925.0,74.0,42.16,-72.33,10.0,10.56,1014.0,-14400.0,10000.0,328.0,0.45
Hamilton,40.0,US,1603590202.0,75.0,39.18,-84.53,7.49,8.33,1021.0,-14400.0,10000.0,40.0,2.6
Djibouti,20.0,DJ,1603590203.0,78.0,11.5,42.5,27.0,27.0,1010.0,10800.0,6000.0,88.0,5.5
Laas,5.0,IT,1603589989.0,93.0,46.62,10.7,6.2,8.33,1017.0,3600.0,10000.0,20.0,1.5
Ponta Delgada,75.0,PT,1603590203.0,93.0,37.73,-25.67,18.0,18.0,1025.0,-3600.0,10000.0,320.0,1.5
Evensk,100.0,RU,1603590204.0,84.0,61.95,159.23,1.62,1.62,1015.0,39600.0,10000.0,33.0,5.33
Quelimane,0.0,MZ,1603590204.0,88.0,-17.88,36.89,23.0,23.0,1012.0,7200.0,10000.0,60.0,2.6
Karabük,0.0,TR,1603590204.0,35.0,41.2,32.63,17.15,17.15,1016.0,10800.0,10000.0,126.0,1.22
San Andrés,90.0,CO,1603590204.0,88.0,12.58,-81.7,27.0,27.0,1009.0,-18000.0,10000.0,130.0,2.6
Oktyabr'skoye,93.0,RU,1603590204.0,80.0,43.06,44.74,4.0,4.0,1018.0,10800.0,10000.0,110.0,3.0
Tarko-Sale,78.0,RU,1603590205.0,96.0,64.92,77.78,-10.82,-10.82,1020.0,18000.0,10000.0,183.0,4.18
Santa Isabel Rio Negro,98.0,BR,1603590205.0,96.0,-0.41,-65.02,23.52,23.52,1009.0,-14400.0,10000.0,209.0,0.71
Egvekinot,8.0,RU,1603590205.0,96.0,66.32,-179.17,-4.49,-4.49,1019.0,43200.0,10000.0,6.0,3.06
Rogovatoye,93.0,RU,1603590205.0,90.0,51.23,38.38,11.11,11.11,1008.0,10800.0,10000.0,252.0,5.24
Aden,0.0,YE,1603590072.0,64.0,12.78,45.04,28.2,28.2,1011.0,10800.0,10000.0,74.0,5.62
Zhigansk,100.0,RU,1603590205.0,97.0,66.77,123.37,-6.4,-6.4,1020.0,32400.0,158.0,191.0,9.17
Saint-Pierre,0.0,RE,1603590206.0,49.0,-21.34,55.48,17.75,20.0,1017.0,14400.0,10000.0,50.0,3.1
Saint Anthony,1.0,US,1603590206.0,54.0,45.02,-93.22,-2.66,-1.0,1026.0,-18000.0,10000.0,10.0,1.5
Lubumbashi,79.0,CD,1603590206.0,43.0,-11.66,27.48,17.01,17.01,1011.0,7200.0,10000.0,133.0,1.29
Togur,28.0,RU,1603590206.0,96.0,58.36,82.83,-6.83,-6.83,1027.0,25200.0,10000.0,185.0,2.9
Roswell,90.0,US,1603590139.0,100.0,34.02,-84.36,18.28,18.89,1015.0,-14400.0,6437.0,41.0,2.43
Dingle,100.0,PH,1603590206.0,78.0,11.0,122.67,27.98,27.98,1009.0,28800.0,10000.0,206.0,1.37
Srandakan,62.0,ID,1603590207.0,75.0,-7.94,110.25,28.15,28.15,1013.0,25200.0,8272.0,157.0,4.03
Abay,20.0,KZ,1603590207.0,43.0,49.63,72.85,1.0,1.0,1024.0,21600.0,10000.0,200.0,8.0
Fukuechō,20.0,JP,1603590207.0,63.0,32.69,128.84,18.0,18.0,1020.0,32400.0,10000.0,330.0,5.1
Birin,59.0,NP,1603590207.0,100.0,26.89,88.07,16.21,16.21,1014.0,20700.0,10000.0,219.0,0.26
Verkhnevilyuysk,90.0,RU,1603590207.0,93.0,63.45,120.32,-3.34,-3.34,1021.0,32400.0,10000.0,208.0,2.37
Methóni,0.0,GR,1603590207.0,81.0,36.82,21.7,13.44,16.67,1015.0,7200.0,10000.0,320.0,5.03
Pucallpa,38.0,PE,1603590032.0,67.0,-8.38,-74.55,26.99,26.99,1007.0,-18000.0,10000.0,14.0,1.12
Vostok,100.0,RU,1603590208.0,99.0,46.49,135.88,-0.32,-0.32,1005.0,36000.0,1452.0,280.0,2.19
Atar,43.0,MR,1603590208.0,24.0,20.52,-13.05,29.78,29.78,1013.0,0.0,10000.0,60.0,4.19
São José da Coroa Grande,16.0,BR,1603590194.0,81.0,-8.9,-35.15,24.7,24.7,1013.0,-10800.0,10000.0,98.0,3.44
Sonoita,100.0,MX,1603590208.0,57.0,31.85,-112.83,21.36,21.36,1008.0,-25200.0,10000.0,194.0,1.45
Qiqihar,0.0,CN,1603590208.0,53.0,47.34,123.97,7.72,7.72,1020.0,28800.0,10000.0,355.0,4.34
Davila,75.0,PH,1603590209.0,94.0,18.47,120.58,26.0,26.0,1010.0,28800.0,8000.0,50.0,2.1
Pitman,75.0,US,1603589971.0,66.0,39.73,-75.13,13.04,13.33,1018.0,-14400.0,10000.0,350.0,5.1
Chicontepec,1.0,MX,1603590209.0,99.0,20.97,-98.17,20.35,20.35,1018.0,-18000.0,10000.0,145.0,0.52
Sørland,50.0,NO,1603590209.0,77.0,67.67,12.69,5.51,5.51,1000.0,3600.0,10000.0,77.0,10.28
Katherine,99.0,AU,1603590209.0,49.0,-14.47,132.27,33.0,33.0,1011.0,34200.0,10000.0,310.0,5.7
Province of Trapani,0.0,IT,1603590210.0,95.0,37.83,12.67,16.69,20.56,1019.0,3600.0,10000.0,287.0,0.45
Grindavik,0.0,IS,1603590210.0,75.0,63.84,-22.43,6.0,6.0,982.0,0.0,10000.0,10.0,13.9
La Cumbre,0.0,AR,1603590210.0,88.0,-30.98,-64.49,21.43,23.33,1008.0,-10800.0,10000.0,350.0,3.1
Lazarev,43.0,RU,1603589959.0,84.0,52.23,141.51,7.04,7.04,998.0,36000.0,10000.0,353.0,7.07
Fort-Shevchenko,0.0,KZ,1603590211.0,92.0,44.51,50.26,15.95,15.95,1017.0,18000.0,10000.0,186.0,4.62
Niquelândia,92.0,BR,1603590211.0,91.0,-14.47,-48.46,20.83,20.83,1012.0,-10800.0,10000.0,68.0,0.74
Coyhaique,0.0,CL,1603590211.0,70.0,-45.58,-72.07,8.0,8.0,1010.0,-10800.0,10000.0,340.0,2.1
Sinnamary,97.0,GF,1603590211.0,79.0,5.38,-52.95,27.27,27.27,1011.0,-10800.0,10000.0,77.0,4.92
Harper,20.0,LR,1603590211.0,88.0,4.38,-7.72,25.09,25.09,1011.0,0.0,10000.0,204.0,2.75
Mweka,100.0,CD,1603590211.0,100.0,-4.85,21.57,20.91,20.91,1008.0,7200.0,10000.0,322.0,0.24
Long Xuyen,20.0,VN,1603590211.0,88.0,10.38,105.42,28.0,28.0,1011.0,25200.0,10000.0,218.0,2.23
Atlantic Beach,20.0,US,1603590212.0,83.0,30.33,-81.4,24.15,24.44,1014.0,-14400.0,10000.0,130.0,3.1
Bogalusa,90.0,US,1603590212.0,82.0,30.79,-89.85,17.23,18.0,1015.0,-18000.0,10000.0,340.0,3.6
Nuuk,100.0,GL,1603590212.0,79.0,64.18,-51.72,-3.0,-3.0,1007.0,-10800.0,10000.0,80.0,4.1
Isangel,75.0,VU,1603590212.0,69.0,-19.55,169.27,28.0,28.0,1013.0,39600.0,10000.0,90.0,3.1
Omboué,100.0,GA,1603590212.0,85.0,-1.57,9.26,24.98,24.98,1010.0,3600.0,10000.0,210.0,3.59
Batemans Bay,100.0,AU,1603590212.0,72.0,-35.72,150.18,13.89,13.89,1015.0,39600.0,10000.0,160.0,1.34
Nānākuli,1.0,US,1603590213.0,70.0,21.39,-158.15,29.0,29.0,1012.0,-36000.0,10000.0,160.0,3.1
Edd,31.0,ER,1603590213.0,41.0,13.93,41.69,28.28,28.28,1008.0,10800.0,10000.0,154.0,3.76
Hofn,54.0,IS,1603590211.0,81.0,64.25,-15.21,6.96,6.96,975.0,0.0,10000.0,24.0,8.49
Falam,62.0,MM,1603590213.0,100.0,22.92,93.68,17.57,17.57,1013.0,23400.0,10000.0,151.0,0.35
Wolf Trap,90.0,US,1603590213.0,62.0,38.94,-77.29,15.03,16.67,1018.0,-14400.0,10000.0,340.0,4.6
Port Lincoln,42.0,AU,1603590046.0,58.0,-34.73,135.87,12.94,12.94,1025.0,37800.0,10000.0,133.0,7.64
Upington,11.0,ZA,1603590214.0,24.0,-28.45,21.26,21.88,21.88,1012.0,7200.0,10000.0,191.0,4.67
La Palma,20.0,US,1603590214.0,68.0,33.85,-118.05,18.93,19.44,1013.0,-25200.0,10000.0,300.0,4.1
Terney,31.0,RU,1603590214.0,55.0,45.05,136.61,8.32,8.32,1003.0,36000.0,10000.0,313.0,5.57
Namatanai,28.0,PG,1603590080.0,67.0,-3.67,152.43,29.55,29.55,1009.0,36000.0,10000.0,33.0,1.88
Cabedelo,40.0,BR,1603590215.0,88.0,-6.98,-34.83,25.0,25.0,1014.0,-10800.0,10000.0,130.0,1.5
Weymouth,93.0,US,1603590215.0,71.0,42.22,-70.94,11.84,13.33,1014.0,-14400.0,10000.0,330.0,8.2
Zaranj,0.0,AF,1603590215.0,43.0,30.97,61.88,10.63,10.63,1019.0,16200.0,10000.0,336.0,6.43
Mandalgovi,59.0,MN,1603590215.0,56.0,45.76,106.27,4.79,4.79,1016.0,28800.0,10000.0,285.0,2.93
Megion,0.0,RU,1603590215.0,85.0,61.03,76.11,-5.0,-5.0,1019.0,18000.0,10000.0,170.0,5.0
Kulhudhuffushi,74.0,MV,1603590215.0,72.0,6.62,73.07,28.16,28.16,1011.0,18000.0,10000.0,271.0,4.88
Opuwo,1.0,NA,1603590216.0,53.0,-18.06,13.84,17.93,17.93,1010.0,7200.0,10000.0,192.0,1.18
Belyy Yar,0.0,RU,1603590216.0,67.0,53.6,91.39,-5.0,-5.0,1033.0,25200.0,10000.0,190.0,5.0
Khorixas,50.0,NA,1603590216.0,50.0,-20.37,14.97,17.08,17.08,1011.0,7200.0,10000.0,147.0,1.08
Barão de Melgaço,0.0,BR,1603590216.0,83.0,-16.19,-55.97,25.0,25.0,1009.0,-14400.0,10000.0,310.0,2.6
West Wendover,75.0,US,1603590216.0,22.0,40.74,-114.07,18.0,18.0,1008.0,-21600.0,10000.0,300.0,5.7
San Jerónimo,99.0,PE,1603590216.0,65.0,-11.95,-75.28,12.3,12.3,1018.0,-18000.0,10000.0,33.0,0.82
Chistogorskiy,79.0,RU,1603590217.0,91.0,53.98,87.38,-3.54,-3.54,1036.0,25200.0,10000.0,211.0,3.4
Aksu,86.0,CN,1603590217.0,44.0,41.12,80.26,8.41,8.41,1025.0,28800.0,10000.0,52.0,0.95
Rørvik,100.0,NO,1603589995.0,65.0,64.86,11.24,5.12,5.12,996.0,3600.0,10000.0,121.0,7.5
Vanavara,93.0,RU,1603590217.0,96.0,60.34,102.28,-3.47,-3.47,1023.0,25200.0,10000.0,234.0,1.56
Argos,100.0,GR,1603590217.0,39.0,37.63,22.73,17.98,17.98,1014.0,7200.0,10000.0,302.0,1.57
Dubbo,90.0,AU,1603590217.0,93.0,-32.25,148.62,13.0,13.0,1012.0,39600.0,10000.0,230.0,4.6
Seymchan,99.0,RU,1603590218.0,91.0,62.88,152.43,0.67,0.67,1016.0,39600.0,10000.0,346.0,2.38
Caçador,99.0,BR,1603590218.0,92.0,-26.78,-51.02,16.21,16.21,1013.0,-10800.0,10000.0,64.0,0.66
Plettenberg Bay,2.0,ZA,1603590218.0,90.0,-34.05,23.37,16.35,16.35,1014.0,7200.0,10000.0,273.0,2.91
Parker,0.0,US,1603590218.0,76.0,32.77,-97.8,11.61,12.78,1013.0,-18000.0,10000.0,152.0,3.46
Manga,95.0,BF,1603590218.0,24.0,11.66,-1.07,25.1,25.1,1009.0,0.0,10000.0,66.0,1.61
Torrington,38.0,US,1603590218.0,81.0,41.8,-73.12,6.93,8.89,1015.0,-14400.0,10000.0,321.0,1.34
Gboko,100.0,NG,1603590219.0,92.0,7.32,9.0,22.49,22.49,1010.0,3600.0,10000.0,176.0,4.2
Plastun,31.0,RU,1603590219.0,52.0,44.76,136.29,9.0,9.0,1004.0,36000.0,10000.0,313.0,4.58
Kriva Palanka,0.0,MK,1603590219.0,93.0,42.2,22.33,9.0,9.0,1016.0,3600.0,10000.0,220.0,0.5
Salinópolis,0.0,BR,1603590219.0,84.0,-0.61,-47.36,26.11,26.11,1010.0,-10800.0,10000.0,61.0,4.6
Dukat,100.0,RU,1603590219.0,93.0,62.55,155.55,0.38,0.38,1014.0,39600.0,10000.0,124.0,0.62
Dicabisagan,100.0,PH,1603589984.0,84.0,17.08,122.42,27.1,27.1,1011.0,28800.0,4009.0,25.0,3.07
Rancho Palos Verdes,75.0,US,1603590220.0,77.0,33.74,-118.39,18.0,18.89,1013.0,-25200.0,10000.0,260.0,3.1
Uyuni,0.0,BO,1603590220.0,41.0,-20.46,-66.83,11.23,11.23,1017.0,-14400.0,10000.0,325.0,5.87
Manavālakurichi,20.0,IN,1603590221.0,83.0,8.13,77.3,26.0,26.0,1010.0,19800.0,4000.0,0.0,0.5
Kutum,56.0,SD,1603590221.0,26.0,14.2,24.67,20.49,20.49,1012.0,7200.0,10000.0,17.0,5.73
Kurumkan,100.0,RU,1603590221.0,71.0,54.3,110.3,2.74,2.74,1017.0,28800.0,10000.0,34.0,1.15
Mahajanga,40.0,MG,1603590221.0,69.0,-15.72,46.32,24.0,24.0,1013.0,10800.0,10000.0,130.0,3.6
Jalu,0.0,LY,1603590221.0,80.0,29.03,21.55,16.4,16.4,1018.0,7200.0,10000.0,344.0,2.7
Nioro,0.0,GM,1603590222.0,90.0,13.35,-15.75,25.48,25.48,1010.0,0.0,10000.0,285.0,2.49
Key West,20.0,US,1603590222.0,78.0,24.56,-81.78,27.96,29.0,1011.0,-14400.0,10000.0,120.0,5.1
Norrtälje,68.0,SE,1603590222.0,26.0,59.76,18.7,5.72,7.22,1006.0,3600.0,10000.0,173.0,1.62
Tutóia,100.0,BR,1603590222.0,80.0,-2.76,-42.27,27.2,27.2,1010.0,-10800.0,10000.0,70.0,5.96
Fairbanks,40.0,US,1603590161.0,79.0,64.84,-147.72,-3.73,-2.22,1021.0,-28800.0,10000.0,31.0,0.85
Trofors,100.0,NO,1603590223.0,52.0,65.53,13.41,5.0,5.0,997.0,3600.0,10000.0,80.0,6.7
Bjørnevatn,99.0,NO,1603590223.0,96.0,69.67,29.98,2.0,2.0,1002.0,3600.0,10000.0,70.0,9.8
São Filipe,100.0,CV,1603590143.0,71.0,14.9,-24.5,27.44,27.44,1014.0,-3600.0,10000.0,73.0,2.84
Sousse,20.0,TN,1603590223.0,68.0,35.83,10.64,20.55,21.0,1022.0,3600.0,10000.0,330.0,5.1
Naryan-Mar,52.0,RU,1603590223.0,94.0,67.67,53.09,-9.1,-9.1,1004.0,10800.0,10000.0,81.0,5.75
Wattegama,20.0,LK,1603590223.0,94.0,6.8,81.48,25.0,25.0,1010.0,19800.0,10000.0,290.0,1.5
La Ronge,90.0,CA,1603590223.0,58.0,55.1,-105.28,-4.0,-4.0,1029.0,-21600.0,10000.0,280.0,4.1
Ust-Maya,48.0,RU,1603590224.0,94.0,60.42,134.53,-7.1,-7.1,1027.0,32400.0,10000.0,317.0,1.88
Icatu,40.0,BR,1603590224.0,83.0,-2.78,-44.07,27.0,27.0,1011.0,-10800.0,10000.0,40.0,5.1
Batagay,3.0,RU,1603590224.0,89.0,67.63,134.63,-10.09,-10.09,1023.0,36000.0,10000.0,144.0,2.26
La Macarena,4.0,CO,1603590224.0,88.0,2.18,-73.78,23.51,23.51,1011.0,-18000.0,10000.0,25.0,1.41
Gijón,0.0,ES,1603590224.0,72.0,43.54,-5.66,17.16,17.78,1007.0,3600.0,10000.0,330.0,3.1
Teluknaga,20.0,ID,1603590224.0,78.0,-6.1,106.64,29.42,32.22,1013.0,25200.0,6000.0,280.0,2.1
Mangan,23.0,IN,1603590225.0,26.0,27.52,88.53,25.27,25.27,1018.0,19800.0,10000.0,23.0,0.36
Tiarei,75.0,PF,1603590225.0,69.0,-17.53,-149.33,27.3,28.0,1009.0,-36000.0,10000.0,340.0,5.7
Norfolk,63.0,US,1603590225.0,71.0,42.17,-71.25,11.09,12.22,1014.0,-14400.0,10000.0,330.0,8.2
Bay Roberts,100.0,CA,1603590225.0,97.0,47.6,-53.26,9.82,10.0,1008.0,-9000.0,7228.0,123.0,6.71
Dehlorān,0.0,IR,1603590225.0,32.0,32.69,47.27,19.68,19.68,1014.0,12600.0,10000.0,59.0,1.15
Thinadhoo,73.0,MV,1603590225.0,73.0,0.53,72.93,28.57,28.57,1011.0,18000.0,10000.0,297.0,5.05
Tautira,75.0,PF,1603590226.0,69.0,-17.73,-149.15,27.3,28.0,1009.0,-36000.0,10000.0,340.0,5.7
Fare,86.0,PF,1603590226.0,76.0,-16.7,-151.02,26.66,26.66,1010.0,-36000.0,8380.0,349.0,4.98
Kawanoechō,20.0,JP,1603590226.0,59.0,34.02,133.57,16.64,18.0,1018.0,32400.0,10000.0,290.0,4.1
Ushumun,0.0,RU,1603590226.0,82.0,52.78,126.53,1.63,1.63,1020.0,32400.0,10000.0,317.0,3.1
Íos,0.0,GR,1603590227.0,63.0,36.73,25.28,18.0,18.89,1014.0,7200.0,10000.0,70.0,2.6
Qinhuangdao,89.0,CN,1603590227.0,30.0,39.93,119.59,16.94,16.94,1019.0,28800.0,10000.0,254.0,5.8
Haselünne,99.0,DE,1603590227.0,72.0,52.67,7.48,14.65,15.0,1002.0,3600.0,10000.0,200.0,5.7
Makakilo City,1.0,US,1603590227.0,70.0,21.35,-158.09,29.0,29.0,1012.0,-36000.0,10000.0,160.0,3.1
Hargeisa,0.0,SO,1603590227.0,66.0,9.56,44.06,16.22,16.22,1013.0,10800.0,10000.0,35.0,1.52
Oodweyne,2.0,SO,1603589930.0,25.0,9.41,45.06,19.93,19.93,1013.0,10800.0,10000.0,55.0,1.92
